{
  "metadata": {
    "description": "Turkish provinces with centroid coordinates and geographical regions",
    "totalProvinces": 81,
    "regions": 7,
    "lastUpdated": "2025-12-16"
  },
  "regions": {
    "marmara": "Marmara",
    "ege": "Ege",
    "akdeniz": "Akdeniz",
    "ic_anadolu": "İç Anadolu",
    "karadeniz": "Karadeniz",
    "dogu_anadolu": "Doğu Anadolu",
    "guneydogu_anadolu": "Güneydoğu Anadolu"
  },
  "provinces": [
    { "id": 1, "name": "Adana", "latitude": 37.0, "longitude": 35.3213, "region": "akdeniz" },
    { "id": 2, "name": "Adıyaman", "latitude": 37.7648, "longitude": 38.2786, "region": "guneydogu_anadolu" },
    { "id": 3, "name": "Afyonkarahisar", "latitude": 38.7569, "longitude": 30.5387, "region": "ege" },
    { "id": 4, "name": "Ağrı", "latitude": 39.7191, "longitude": 43.0503, "region": "dogu_anadolu" },
    { "id": 5, "name": "Amasya", "latitude": 40.6499, "longitude": 35.8333, "region": "karadeniz" },
    { "id": 6, "name": "Ankara", "latitude": 39.9334, "longitude": 32.8597, "region": "ic_anadolu" },
    { "id": 7, "name": "Antalya", "latitude": 36.8969, "longitude": 30.7133, "region": "akdeniz" },
    { "id": 8, "name": "Artvin", "latitude": 41.1828, "longitude": 41.8183, "region": "karadeniz" },
    { "id": 9, "name": "Aydın", "latitude": 37.8560, "longitude": 27.8416, "region": "ege" },
    { "id": 10, "name": "Balıkesir", "latitude": 39.6484, "longitude": 27.8826, "region": "marmara" },
    { "id": 11, "name": "Bilecik", "latitude": 40.0567, "longitude": 30.0665, "region": "marmara" },
    { "id": 12, "name": "Bingöl", "latitude": 39.0626, "longitude": 40.7696, "region": "dogu_anadolu" },
    { "id": 13, "name": "Bitlis", "latitude": 38.4001, "longitude": 42.1089, "region": "dogu_anadolu" },
    { "id": 14, "name": "Bolu", "latitude": 40.5760, "longitude": 31.5788, "region": "karadeniz" },
    { "id": 15, "name": "Burdur", "latitude": 37.4613, "longitude": 30.0665, "region": "akdeniz" },
    { "id": 16, "name": "Bursa", "latitude": 40.2669, "longitude": 29.0634, "region": "marmara" },
    { "id": 17, "name": "Çanakkale", "latitude": 40.1553, "longitude": 26.4142, "region": "marmara" },
    { "id": 18, "name": "Çankırı", "latitude": 40.6013, "longitude": 33.6134, "region": "ic_anadolu" },
    { "id": 19, "name": "Çorum", "latitude": 40.5506, "longitude": 34.9556, "region": "karadeniz" },
    { "id": 20, "name": "Denizli", "latitude": 37.7765, "longitude": 29.0864, "region": "ege" },
    { "id": 21, "name": "Diyarbakır", "latitude": 37.9144, "longitude": 40.2306, "region": "guneydogu_anadolu" },
    { "id": 22, "name": "Edirne", "latitude": 41.6771, "longitude": 26.5557, "region": "marmara" },
    { "id": 23, "name": "Elazığ", "latitude": 38.6810, "longitude": 39.2264, "region": "dogu_anadolu" },
    { "id": 24, "name": "Erzincan", "latitude": 39.7500, "longitude": 39.5000, "region": "dogu_anadolu" },
    { "id": 25, "name": "Erzurum", "latitude": 39.9000, "longitude": 41.2700, "region": "dogu_anadolu" },
    { "id": 26, "name": "Eskişehir", "latitude": 39.7767, "longitude": 30.5206, "region": "ic_anadolu" },
    { "id": 27, "name": "Gaziantep", "latitude": 37.0662, "longitude": 37.3833, "region": "guneydogu_anadolu" },
    { "id": 28, "name": "Giresun", "latitude": 40.9128, "longitude": 38.3895, "region": "karadeniz" },
    { "id": 29, "name": "Gümüşhane", "latitude": 40.4386, "longitude": 39.5086, "region": "karadeniz" },
    { "id": 30, "name": "Hakkari", "latitude": 37.5744, "longitude": 43.7408, "region": "dogu_anadolu" },
    { "id": 31, "name": "Hatay", "latitude": 36.4018, "longitude": 36.3498, "region": "akdeniz" },
    { "id": 32, "name": "Isparta", "latitude": 37.7648, "longitude": 30.5566, "region": "akdeniz" },
    { "id": 33, "name": "Mersin", "latitude": 36.8121, "longitude": 34.6415, "region": "akdeniz" },
    { "id": 34, "name": "İstanbul", "latitude": 41.0082, "longitude": 28.9784, "region": "marmara" },
    { "id": 35, "name": "İzmir", "latitude": 38.4237, "longitude": 27.1428, "region": "ege" },
    { "id": 36, "name": "Kars", "latitude": 40.6167, "longitude": 43.1000, "region": "dogu_anadolu" },
    { "id": 37, "name": "Kastamonu", "latitude": 41.3887, "longitude": 33.7827, "region": "karadeniz" },
    { "id": 38, "name": "Kayseri", "latitude": 38.7312, "longitude": 35.4787, "region": "ic_anadolu" },
    { "id": 39, "name": "Kırklareli", "latitude": 41.7333, "longitude": 27.2167, "region": "marmara" },
    { "id": 40, "name": "Kırşehir", "latitude": 39.1425, "longitude": 34.1709, "region": "ic_anadolu" },
    { "id": 41, "name": "Kocaeli", "latitude": 40.8533, "longitude": 29.8815, "region": "marmara" },
    { "id": 42, "name": "Konya", "latitude": 37.8667, "longitude": 32.4833, "region": "ic_anadolu" },
    { "id": 43, "name": "Kütahya", "latitude": 39.4242, "longitude": 29.9833, "region": "ege" },
    { "id": 44, "name": "Malatya", "latitude": 38.3552, "longitude": 38.3095, "region": "dogu_anadolu" },
    { "id": 45, "name": "Manisa", "latitude": 38.6191, "longitude": 27.4289, "region": "ege" },
    { "id": 46, "name": "Kahramanmaraş", "latitude": 37.5858, "longitude": 36.9371, "region": "akdeniz" },
    { "id": 47, "name": "Mardin", "latitude": 37.3212, "longitude": 40.7245, "region": "guneydogu_anadolu" },
    { "id": 48, "name": "Muğla", "latitude": 37.2153, "longitude": 28.3636, "region": "ege" },
    { "id": 49, "name": "Muş", "latitude": 38.9462, "longitude": 41.7539, "region": "dogu_anadolu" },
    { "id": 50, "name": "Nevşehir", "latitude": 38.6939, "longitude": 34.6857, "region": "ic_anadolu" },
    { "id": 51, "name": "Niğde", "latitude": 37.9667, "longitude": 34.6833, "region": "ic_anadolu" },
    { "id": 52, "name": "Ordu", "latitude": 40.9839, "longitude": 37.8764, "region": "karadeniz" },
    { "id": 53, "name": "Rize", "latitude": 41.0201, "longitude": 40.5234, "region": "karadeniz" },
    { "id": 54, "name": "Sakarya", "latitude": 40.6940, "longitude": 30.4358, "region": "marmara" },
    { "id": 55, "name": "Samsun", "latitude": 41.2867, "longitude": 36.3300, "region": "karadeniz" },
    { "id": 56, "name": "Siirt", "latitude": 37.9333, "longitude": 41.9500, "region": "guneydogu_anadolu" },
    { "id": 57, "name": "Sinop", "latitude": 42.0231, "longitude": 35.1531, "region": "karadeniz" },
    { "id": 58, "name": "Sivas", "latitude": 39.7477, "longitude": 37.0179, "region": "ic_anadolu" },
    { "id": 59, "name": "Tekirdağ", "latitude": 40.9833, "longitude": 27.5167, "region": "marmara" },
    { "id": 60, "name": "Tokat", "latitude": 40.3167, "longitude": 36.5500, "region": "karadeniz" },
    { "id": 61, "name": "Trabzon", "latitude": 41.0015, "longitude": 39.7178, "region": "karadeniz" },
    { "id": 62, "name": "Tunceli", "latitude": 39.3074, "longitude": 39.4388, "region": "dogu_anadolu" },
    { "id": 63, "name": "Şanlıurfa", "latitude": 37.1591, "longitude": 38.7969, "region": "guneydogu_anadolu" },
    { "id": 64, "name": "Uşak", "latitude": 38.6823, "longitude": 29.4082, "region": "ege" },
    { "id": 65, "name": "Van", "latitude": 38.4941, "longitude": 43.4000, "region": "dogu_anadolu" },
    { "id": 66, "name": "Yozgat", "latitude": 39.8181, "longitude": 34.8147, "region": "ic_anadolu" },
    { "id": 67, "name": "Zonguldak", "latitude": 41.4564, "longitude": 31.7987, "region": "karadeniz" },
    { "id": 68, "name": "Aksaray", "latitude": 38.3687, "longitude": 34.0370, "region": "ic_anadolu" },
    { "id": 69, "name": "Bayburt", "latitude": 40.2552, "longitude": 40.2249, "region": "karadeniz" },
    { "id": 70, "name": "Karaman", "latitude": 37.1759, "longitude": 33.2287, "region": "ic_anadolu" },
    { "id": 71, "name": "Kırıkkale", "latitude": 39.8468, "longitude": 33.5153, "region": "ic_anadolu" },
    { "id": 72, "name": "Batman", "latitude": 37.8812, "longitude": 41.1351, "region": "guneydogu_anadolu" },
    { "id": 73, "name": "Şırnak", "latitude": 37.4187, "longitude": 42.4918, "region": "guneydogu_anadolu" },
    { "id": 74, "name": "Bartın", "latitude": 41.5811, "longitude": 32.4610, "region": "karadeniz" },
    { "id": 75, "name": "Ardahan", "latitude": 41.1105, "longitude": 42.7022, "region": "dogu_anadolu" },
    { "id": 76, "name": "Iğdır", "latitude": 39.8880, "longitude": 44.0048, "region": "dogu_anadolu" },
    { "id": 77, "name": "Yalova", "latitude": 40.6500, "longitude": 29.2667, "region": "marmara" },
    { "id": 78, "name": "Karabük", "latitude": 41.2061, "longitude": 32.6204, "region": "karadeniz" },
    { "id": 79, "name": "Kilis", "latitude": 36.7184, "longitude": 37.1212, "region": "guneydogu_anadolu" },
    { "id": 80, "name": "Osmaniye", "latitude": 37.2130, "longitude": 36.1763, "region": "akdeniz" },
    { "id": 81, "name": "Düzce", "latitude": 40.8438, "longitude": 31.1565, "region": "karadeniz" }
  ]
}
